{ "features": [
  {
    "geometry" : {
      "type": "Point",
      "coordinates" : [139.75842,35.697369]
    },
    "properties" : {
      "info" : {
        "group" : "Miracle Tree Stamps",
        "location" : "",
        "story" : "Planner Tokyo Stamp Cooperative Society."
      },
      "images" : [
        { "url" : "img/stamps-1.jpeg" }
      ]
    }
  },{
    "geometry" : {
      "type": "Point",
      "coordinates" : [136.652207,36.568606]
    },
    "properties" : {
      "info" : {
        "group" : "Miracle Tree Stamps",
        "location" : "Tsurumi Stamp",
        "story" : "The reinforced piece was chiseled by Tsurumi Stamp to be used by the Mayor of Rikuzentakata City."
      },
      "images" : [
        { "url" : "img/stamps-3.jpeg" },
        { "url" : "img/stamps-4.jpeg" },
        { "url" : "img/stamps-5.jpeg" },
        { "url" : "img/stamps-6.jpeg" }
      ]
    }
  },{
    "geometry" : {
      "type": "Point",
      "coordinates" : [135.491094,34.696359]
    },
    "properties" : {
      "info" : {
        "group" : "Miracle Tree Stamps",
        "location" : "Daiken Corporation",
        "story" : "The piece of the branch was reinforced by Daiken Corporation via WPCs (Wood Plastic Composites) modification technology."
      },
      "images" : [
        { "url" : "img/stamps-2.jpeg" }
      ]
    }
  },{
    "geometry" : {
      "type": "Point",
      "coordinates" : [140.025183,36.11467]
    },
    "properties" : {
      "info" : {
        "group" : "Miracle Tree Cloning",
        "location" : "Sumitomo Forestry Co., LTD",
        "story" : "Pine cones from trees in the area were used to extract seeds. Succeeded 12/2012."
      },
      "images" : [
        { "url" : "img/cloning.jpeg" }
      ]
    }
  },{
    "geometry" : {
      "type": "Point",
      "coordinates" : [139.748238,35.673144]
    },
    "properties" : {
      "info" : {
        "group" : "Miracle Tree Coins",
        "location" : "The Ministry of Finance",
        "story" : ""
      },
      "images" : [
        { "url" : "img/coins.jpeg" }
      ]
    }
  },{
    "geometry" : {
      "type": "Point",
      "coordinates" : [136.763306,35.092945]
    },
    "properties" : {
      "info" : {
        "group" : "Miracle Tree Trunks",
        "location" : "Yatomi Lumber",
        "story" : "Received the trunks on 09/16/2012. Invented a special drilling machine to drill the inside of the trunks to make them hollow."
      },
      "images" : [
        { "url" : "img/trunk-a-1.jpeg" },
        { "url" : "img/trunk-a-2.jpeg" },
        { "url" : "img/trunk-a-3.jpeg" }
      ]
    }
  },{
    "geometry" : {
      "type": "Point",
      "coordinates" : [135.868196,35.00105]
    },
    "properties" : {
      "info" : {
        "group" : "Miracle Tree Trunks",
        "location" : "Yoshida Biology Laboratory",
        "story" : "Preservative treatment with fluorine coatings."
      },
      "images" : [
        { "url" : "img/trunk-c-1.gif" },
        { "url" : "img/trunk-c-2.gif" }
      ]
    }
  },{
    "geometry" : {
      "type": "Point",
      "coordinates" : [137.951021,35.762558]
    },
    "properties" : {
      "info" : {
        "group" : "Miracle Tree Trunks",
        "location" : "Shinano Kougyo",
        "story" : "Building CFRP (Carbon Fiber Reinforced Plastics) shafts."
      },
      "images" : [
        { "url" : "img/trunk-d-1.jpeg" },
        { "url" : "img/trunk-d-2.jpeg" }
      ]
    }
  },{
    "geometry" : {
      "type": "Point",
      "coordinates" : [134.544308,34.846456]
    },
    "properties" : {
      "info" : {
        "group" : "Miracle Tree Trunks",
        "location" : "Kado Corporation",
        "story" : "Assembling the CFRP shafts with the trunks"
      },
      "images" : [
        { "url" : "img/trunk-b-1.jpeg" },
        { "url" : "img/trunk-b-2.jpeg" }
      ]
    }
  },{
    "geometry" : {
      "type": "Point",
      "coordinates" : [141.625499,39.003225]
    },
    "properties" : {
      "info" : {
        "group" : "Miracle Tree",
        "location" : "",
        "story" : ""
      },
      "images" : [
        
      ]
    }
  },{
    "geometry" : {
      "type": "Point",
      "coordinates" : [141.6,39.003225]
    },
    "properties" : {
      "info" : {
        "group" : "Miracle Tree Cutting",
        "location" : "",
        "story" : "The trunk cut into three pieces"
      },
      "images" : [
        { "url" : "img/cutting-1.jpeg" },
        { "url" : "img/cutting-2.jpeg" },
        { "url" : "img/cutting-3.jpeg" },
        { "url" : "img/cutting-4.jpeg" },
        { "url" : "img/cutting-5.jpeg" },
        { "url" : "img/cutting-6.jpeg" }
        
      ]
    }
  },{
    "geometry" : {
      "type": "Point",
      "coordinates" : [141.630006,39.015076]
    },
    "properties" : {
      "info" : {
        "group" : "Miracle Tree Shipping",
        "location" : "",
        "story" : "The trunks going to Yatomi Seizai in Aichi prefecture. <br /> The branches going to Paw in Kanagawa prefecture."
      },
      "images" : [
        { "url" : "img/shipping-1.jpeg" }
      ]
    }
  },{
    "geometry" : {
      "type": "Point",
      "coordinates" : [140.872307,38.253174]
    },
    "properties" : {
      "info" : {
        "group" : "Tohoku University",
        "location" : "Tohoku University",
        "story" : "Testing the structural integrity of the modified tree with a model. "
      },
      "images" : [
        { "url" : "img/tohoku-1.jpeg" }
      ]
    }
  },{
    "geometry" : {
      "type": "Point",
      "coordinates" : [139.760097,35.708]
    },
    "properties" : {
      "info" : {
        "group" : "Preservation Team",
        "location" : "",
        "story" : "Japanese Landscape Association"
      },
      "images" : [
        { "url" : "img/announced-dead-1.jpeg" }
      ]
    }
  },{
    "geometry" : {
      "type": "Point",
      "coordinates" : [139.735872,35.674946]
    },
    "properties" : {
      "info" : {
        "group" : "Preservation Team",
        "location" : "",
        "story" : "Japanese Greenery Research and Denvelopment Center"
      },
      "images" : [
        { "url" : "img/announced-dead-1.jpeg" }
      ]
    }
  },{
    "geometry" : {
      "type": "Point",
      "coordinates" : [139.676451,35.652555]
    },
    "properties" : {
      "info" : {
        "group" : "Preservation Team",
        "location" : "",
        "story" : "Japanese Institute of Landscape Architecture."
      },
      "images" : [
        { "url" : "img/announced-dead-1.jpeg" }
      ]
    }
  },{
    "geometry" : {
      "type": "Point",
      "coordinates" : [139.776071,35.62983]
    },
    "properties" : {
      "info" : {
        "group" : "Miracle Tree Planning",
        "location" : "",
        "story" : "Nomura Co., Ltd’s plan for monumentalization of the tree was chosen by Rikuzentakata City. The total cost of the plan is $1,500,000 "
      },
      "images" : [
        { "url" : "img/planning-1.jpeg" },
        { "url" : "img/planning-2.jpeg" }
      ]
    }
  },{
    "geometry" : {
      "type": "Point",
      "coordinates" : [141.625499,39.003225]
    },
    "properties" : {
      "info" : {
        "group" : "Miracle Tree Uprooted",
        "location" : "",
        "story" : ""
      },
      "images" : [
        { "url" : "img/uprooted-1.jpeg" }
      ]
    }
  },{
    "geometry" : {
      "type": "Point",
      "coordinates" : [139.400862,35.526119]
    },
    "properties" : {
      "info" : {
        "group" : "Miracle Tree Branches",
        "location" : "PAW",
        "story" : "Received in 09/15/12 and the replication project was done in 02/26/13."
      },
      "images" : [
        { "url" : "img/branches-1.jpeg" },
        { "url" : "img/branches-2.jpeg" },
        { "url" : "img/branches-3.jpeg" },
        { "url" : "img/branches-4.jpeg" },
        { "url" : "img/branches-5.jpeg" }
      ]
    }
  },{
    "geometry" : {
      "type": "Point",
      "coordinates" : [139.564787,35.921906]
    },
    "properties" : {
      "info" : {
        "group" : "Miracle Tree Recycling",
        "location" : "JC Next",
        "story" : "Production of goods such as letter set, bookmark, business card with recycled the miracle tree chips. Some of the profits go to the original owner of the tree, Japan Youth Hostel Association."
      },
      "images" : [
        { "url" : "img/recycled-1.jpeg" },
        { "url" : "img/recycled-2.jpeg" },
        { "url" : "img/recycled-3.jpeg" },
        { "url" : "img/recycled-4.jpeg" }
      ]
    }
  },{
    "geometry" : {
      "type": "Point",
      "coordinates" : [135.804843,34.988724]
    },
    "properties" : {
      "info" : {
        "group" : "Miracle Tree Rings",
        "location" : "Miracle Tree Uprooted",
        "story" : "Determined to be 173 year-old in 02/26/2013. This defied the initial belief that the tree was about 200 to 270-year-old."
      },
      "images" : [
        { "url" : "img/rings-1.jpeg" }
      ]
    }
  },{
    "geometry" : {
      "type": "Point",
      "coordinates" : [139.734548,35.669185]
    },
    "properties" : {
      "info" : {
        "group" : "Miracle Tree Reconstruction",
        "location" : "Sankaidou Building",
        "story" : "Established in 02/02/2012. Its signpost’s material came from Takatamatsubara"
      },
      "images" : [
        { "url" : "img/reconstruction-1.jpeg" }
      ]
    }
  }
  
  
  
  ]
}